$GPRMC,224119.200,A,3927.2666,N,10711.1487,W,0.28,122.75,240415,,,A*7B
$GPVTG,122.75,T,,M,0.28,N,0.52,K,A*33
$GPGGA,224119.400,3927.2667,N,10711.1487,W,1,7,1.07,2086.2,M,-18.0,M,,*5A
$GPGLL,3927.2667,N,10711.1487,W,224119.400,A,A*44
$GPGSA,A,3,30,17,28,13,11,19,07,,,,,,1.38,1.07,0.87*03
$GPGSV,3,1,10,30,81,019,19,28,59,290,28,07,57,111,28,51,44,180,28*7E
$GPGSV,3,2,10,11,37,102,27,13,31,309,19,19,25,044,29,17,25,203,27*78
$GPGSV,3,3,10,04,22,090,,09,11,174,*7E
$GPRMC,224119.400,A,3927.2667,N,10711.1487,W,0.29,122.75,240415,,,A*7D
$GPVTG,122.75,T,,M,0.29,N,0.54,K,A*3$GPGGA,224120.200,3927.2667,N,10711.1487,W,1,7,1.07,2086.9,M,-18.0,M,,*5D
$GPGLL,3927.2667,N,10711.1487,W,224120.200,A,A*48
$GPGSA,A,3,30,17,28,13,11,19,07,,,,,,1.38,1.07,0.87*03
$GPGSV,3,1,10,30,81,019,19,28,59,290,28,07,57,111,28,51,44,180,28*7E
$GPGSV,3,2,10,11,37,102,27,13,31,309,19,19,25,044,29,17,25,203,27*78
$GPGSV,3,3,10,04,22,090,,09,11,174,*7E
$GPRMC,224120.200,A,3927.2667,N,10711.1487,W,0.27,122.75,240415,,,A*7F
$GPVTG,122.75,T,,M,0.27,N,0.49,K,A*36
$GPGGA,224120.400,3927.2667,N,10711.1487,W,1,7,1.07,2087.1,M,-18.0,M,,*52
$GPGLL,3927.2667,N,10711.1487,W,224120.400,A,A*4E
$GPGSA,A,3,30,17,28,13,11,19,07,,,,,,2.07,1.07,1.77*02
$GPGSV,3,1,10,30,81,019,19,28,59,290,28,07,57,111,28,51,44,180,29*7F
$GPGSV,3,2,10,11,37,102,27,13,31,309,19,19,25,044,29,17,25,203,27*78
$GPGSV,3,3,10,04,22,090,,09,11,174,*7E
$GPRMC,224120.400,A,3927.2667,N,10711.1487,W,0.26,122.75,240415,,,A*78
$GPVTG,122.75,T,,M,0.26,N,0.49,K,A*37
$GPGGA,224120.600,3927.2667,N,10711.1487,W,1,7,1.07,2087.2,M,-18.0,M,,*53
$GPGLL,3927.2667,N,10711.1487,W,224120.600,A,A*4C
$GPGSA,A,3,30,17,28,13,11,19,07,,,,,,2.07,1.07,1.77*02
$GPGSV,3,1,10,30,81,019,19,28,59,290,28,07,57,111,28,51,44,180,29*7F
$GPGSV,3,2,10,11,37,102,27,13,31,309,19,19,25,044,29,17,25,203,27*78
$GPGSV,3,3,10,04,22,090,,09,11,174,*7E
$GPRMC,224120.600,A,3927.2667,N,10711.1487,W,0.27,122.75,240415,,,A*7B
$GPVTG,122.75,T,,M,0.27,N,0.51,K,A*3F
$GPGGA,224120.800,3927.2667,N,10711.1486,W,1,7,1.07,2087.3,M,-18.0,M,,*5D
$GPGLL,3927.2667,N,10711.1486,W,224120.800,A,A*43
$GPGSA,A,3,30,17,28,13,11,19,07,,,,,,2.07,1.07,1.77*02
$GPGSV,3,1,10,30,81,019,19,28,59,290,28,07,57,111,28,51,44,180,29*7F
$GPGSV,3,2,10,11,37,102,27,13,31,309,19,19,25,044,29,17,25,203,27*78
$GPGSV,3,3,10,04,22,090,,09,11,174,*7E
$GPRMC,224120.800,A,3927.2667,N,10711.1486,W,0.27,122.75,240415,,,A*74
$GPVTG,122.75,T,,M,0.27,N,0.51,K,A*3F
$GPGGA,224121.000,3927.2668,N,10711.1486,W,1,7,1.07,2087.5,M,-18.0,M,,*5D
$GPGLL,3927.2668,N,10711.1486,W,224121.000,A,A*45
$GPGSA,A,3,30,17,28,13,11,19,07,,,,,,2.07,1.07,1.77*02
$GPGSV,3,1,10,30,81,019,19,28,59,290,28,07,57,111,28,51,44,180,30*77
$GPGSV,3,2,10,11,37,102,27,13,31,309,19,19,25,044,29,17,25,203,27*78
$GPGSV,3,3,10,04,22,090,,09,11,174,*7E
$GPRMC,224121.000,A,3927.2668,N,10711.1486,W,0.29,122.75,240415,,,A*7C
$GPVTG,122.75,T,,M,0.29,N,0.54,K,A*34
$GPGGA,224121.200,3927.2668,N,10711.1486,W,1,7,1.07,2087.7,M,-18.0,M,,*5D
$GPGLL,3927.2668,N,10711.1486,W,224121.200,A,A*47
$GPGSA,A,3,30,17,28,13,11,19,07,,,,,,2.07,1.07,1.77*02
$GPGSV,3,1,10,30,81,019,19,28,59,290,28,07,57,111,28,51,44,180,29*7F
$GPGSV,3,2,10,11,37,102,27,13,31,309,20,19,25,044,29,17,25,203,27*72
$GPGSV,3,3,10,04,22,090,,09,11,174,*7E
$GPRMC,224121.200,A,3927.2668,N,10711.1486,W,0.26,122.75,240415,,,A*71
$GPVTG,122.75,T,,M,0.26,N,0.49,K,A*37
$GPGGA,224121.400,3927.2668,N,10711.1486,W,1,7,1.07,2087.8,M,-18.0,M,,*54
$GPGLL,3927.2668,N,10711.1486,W,224121.400,A,A*41
$GPGSA,A,3,30,17,28,13,11,19,07,,,,,,2.07,1.07,1.77*02
$GPGSV,3,1,10,30,81,019,19,28,59,290,28,07,57,111,28,51,44,180,29*7F
$GPGSV,3,2,10,11,37,102,27,13,31,309,20,19,25,044,29,17,25,203,27*72
$GPGSV,3,3,10,04,22,090,,09,11,174,*7E
$GPRMC,224121.400,A,3927.2668,N,10711.1486,W,0.25,122.75,240415,,,A*74
$GPVTG,122.75,T,,M,0.25,N,0.47,K,A*3A
$GPGGA,224121.600,3927.2668,N,10711.1485,W,1,7,1.07,2088.0,M,-18.0,M,,*52
$GPGLL,3927.2668,N,10711.1485,W,224121.600,A,A*40
$GPGSA,A,3,30,17,28,13,11,19,07,,,,,,2.07,1.07,1.77*02
$GPGSV,3,1,10,30,81,019,19,28,59,290,28,07,57,111,28,51,44,180,29*7F
$GPGSV,3,2,10,11,37,102,27,13,31,309,21,19,25,044,29,17,25,203,27*73
$GPGSV,3,3,10,04,22,090,,09,11,174,*7E
$GPRMC,224121.600,A,3927.2668,N,10711.1485,W,0.23,122.75,240415,,,A*73
$GPVTG,122.75,T,,M,0.23,N,0.44,K,A*3F
$GPGGA,224121.800,3927.2668,N,10711.1485,W,1,7,1.07,2088.1,M,-18.0,M,,*5D
$GPGLL,3927.2668,N,10711.1485,W,224121.800,A,A*4E
$GPGSA,A,3,30,17,28,13,11,19,07,,,,,,2.07,1.07,1.77*02
$GPGSV,3,1,10,30,81,019,19,28,59,290,28,07,57,111,28,51,44,180,29*7F
$GPGSV,3,2,10,11,37,102,27,13,31,309,21,19,25,044,29,17,25,203,27*73
$GPGSV,3,3,10,04,22,090,,09,11,174,*7E
$GPRMC,224121.800,A,3927.2668,N,10711.1485,W,0.18,122.75,240415,,,A*75
$GPVTG,122.75,T,,M,0.18,N,0.32,K,A*36
$GPGGA,224122.000,3927.2668,N,10711.1485,W,1,7,1.07,2088.3,M,-18.0,M,,*54
$GPGLL,3927.2668,N,10711.1485,W,224122.000,A,A*45
$GPGSA,A,3,30,17,28,13,11,19,07,,,,,,1.38,1.07,0.87*03
$GPGSV,3,1,10,30,81,019,19,28,59,290,28,07,57,111,28,51,44,180,29*7F
$GPGSV,3,2,10,11,37,102,27,13,31,309,21,19,25,044,29,17,25,203,27*73
$GPGSV,3,3,10,04,22,090,,09,11,174,*7E
$GPRMC,224122.000,A,3927.2668,N,10711.1485,W,0.12,122.75,240415,,,A*74
$GPVTG,122.75,T,,M,0.12,N,0.23,K,A*3C
$GPGGA,224122.200,3927.2667,N,10711.1485,W,1,7,1.07,2088.4,M,-18.0,M,,*5E
$GPGLL,3927.2667,N,10711.1485,W,224122.200,A,A*48
$GPGSA,A,3,30,17,28,13,11,19,07,,,,,,1.38,1.07,0.87*03
$GPGSV,3,1,10,30,81,019,19,28,59,290,28,07,57,111,28,51,44,180,28*7E
$GPGSV,3,2,10,11,37,102,27,13,31,309,21,19,25,044,29,17,25,203,27*73
$GPGSV,3,3,10,04,22,090,,09,11,174,*7E
$GPRMC,224122.200,A,3927.2667,N,10711.1485,W,0.09,122.75,240415,,,A*73
$GPVTG,122.75,T,,M,0.09,N,0.17,K,A*31
$GPGGA,224122.400,3927.2667,N,10711.1485,W,1,7,1.07,2088.6,M,-18.0,M,,*5A
$GPGLL,3927.2667,N,10711.1485,W,224122.400,A,A*4E
$GPGSA,A,3,30,17,28,13,11,19,07,,,,,,1.38,1.07,0.87*03
$GPGSV,3,1,10,30,81,019,19,28,59,290,28,07,57,111,28,51,44,180,28*7E
$GPGSV,3,2,10,11,37,102,27,13,31,309,21,19,25,044,29,17,25,203,27*73
$GPGSV,3,3,10,04,22,090,,09,11,174,*7E
$GPRMC,224122.400,A,3927.2667,N,10711.1485,W,0.08,122.75,240415,,,A*74
$GPVTG,122.75,T,,M,0.08,N,0.15,K,A*32
$GPGGA,224122.600,3927.2667,N,10711.1484,W,1,7,1.07,2088.7,M,-18.0,M,,*58
$GPGLL,3927.2667,N,10711.1484,W,224122.600,A,A*4D
$GPGSA,A,3,30,17,28,13,11,19,07,,,,,,1.38,1.07,0.87*03
$GPGSV,3,1,10,30,81,019,19,28,59,290,28,07,57,111,28,51,44,180,28*7E
$GPGSV,3,2,10,11,37,102,27,13,31,309,21,19,25,044,29,17,25,203,27*73
$GPGSV,3,3,10,04,22,090,,09,11,174,*7E
$GPRMC,224122.600,A,3927.2667,N,10711.1484,W,0.07,122.75,240415,,,A*78
$GPVTG,122.75,T,,M,0.07,N,0.12,K,A*3A
$GPGGA,224122.800,3927.2668,N,10711.1484,W,1,7,1.07,2088.8,M,-18.0,M,,*56
$GPGLL,3927.2668,N,10711.1484,W,224122.800,A,A*4C
$GPGSA,A,3,30,17,28,13,11,19,07,,,,,,1.38,1.07,0.87*03
$GPGSV,3,1,10,30,81,019,19,28,59,290,28,07,57,111,28,51,44,180,28*7E
$GPGSV,3,2,10,11,37,102,27,13,31,309,21,19,25,044,29,17,25,203,27*73
$GPGSV,3,3,10,04,22,090,,09,11,174,*7E
$GPRMC,224122.800,A,3927.2668,N,10711.1484,W,0.07,122.75,240415,,,A*79
$GPVTG,122.75,T,,M,0.07,N,0.13,K,A*3B
$GPGGA,224123.000,3927.2668,N,10711.1484,W,1,7,1.07,2088.9,M,-18.0,M,,*5E
$GPGLL,3927.2668,N,10711.1484,W,224123.000,A,A*45
$GPGSA,A,3,30,17,28,13,11,19,07,,,,,,1.38,1.07,0.87*03
$GPGSV,3,1,10,30,81,019,19,28,59,290,28,07,57,111,28,51,44,180,28*7E
$GPGSV,3,2,10,11,37,102,27,13,31,309,21,19,25,044,29,17,25,203,27*73
$GPGSV,3,3,10,04,22,090,,09,11,174,*7E
$GPRMC,224123.000,A,3927.2668,N,10711.1484,W,0.09,122.75,240415,,,A*7E
$GPVTG,122.75,T,,M,0.09,N,0.16,K,A*30
$GPGGA,224123.200,3927.2668,N,10711.1484,W,1,7,1.07,2089.0,M,-18.0,M,,*54
$GPGLL,3927.2668,N,10711.1484,W,224123.200,A,A*47
$GPGSA,A,3,30,17,28,13,11,19,07,,,,,,1.38,1.07,0.87*03
$GPGSV,3,1,10,30,81,019,19,28,59,290,28,07,57,111,28,51,44,180,28*7E
$GPGSV,3,2,10,11,37,102,27,13,31,309,21,19,25,044,29,17,25,203,27*73
$GPGSV,3,3,10,04,22,090,,09,11,174,*7E
$GPRMC,224123.200,A,3927.2668,N,10711.1484,W,0.08,122.75,240415,,,A*7D
$GPVTG,122.75,T,,M,0.08,N,0.15,K,A*32
$GPGGA,224123.400,3927.2668,N,10711.1484,W,1,7,1.07,2089.0,M,-18.0,M,,*52
$GPGLL,3927.2668,N,10711.1484,W,224123.400,A,A*41
$GPGSA,A,3,30,17,28,13,11,19,07,,,,,,1.38,1.07,0.87*03
$GPGSV,3,1,10,30,81,019,19,28,59,290,28,07,57,111,28,51,44,180,28*7E
$GPGSV,3,2,10,11,37,102,27,13,31,309,21,19,25,044,29,17,25,203,27*73
$GPGSV,3,3,10,04,22,090,,09,11,174,*7E
$GPRMC,224123.400,A,3927.2668,N,10711.1484,W,0.07,122.75,240415,,,A*74
$GPVTG,122.75,T,,M,0.07,N,0.14,K,A*3C
$GPGGA,224123.600,3927.2668,N,10711.1484,W,1,7,1.07,2089.1,M,-18.0,M,,*51
$GPGLL,3927.2668,N,10711.1484,W,224123.600,A,A*43
$GPGSA,A,3,30,17,28,13,11,19,07,,,,,,1.38,1.07,0.87*03
$GPGSV,3,1,10,30,81,019,19,28,59,290,28,07,57,111,28,51,44,180,28*7E
$GPGSV,3,2,10,11,37,102,27,13,31,309,21,19,25,044,29,17,25,203,27*73
$GPGSV,3,3,10,04,22,090,,09,11,174,*7E
$GPRMC,224123.600,A,3927.2668,N,10711.1484,W,0.09,122.75,240415,,,A*78
$GPVTG,122.75,T,,M,0.09,N,0.16,K,A*30
$GPGGA,224123.800,3927.2668,N,10711.1483,W,1,7,1.07,2089.2,M,-18.0,M,,*5B
$GPGLL,3927.2668,N,10711.1483,W,224123.800,A,A*4A
$GPGSA,A,3,30,17,28,13,11,19,07,,,,,,1.38,1.07,0.87*03
$GPGSV,3,1,10,30,81,019,19,28,59,290,28,07,57,111,29,51,44,180,28*7F
$GPGSV,3,2,10,11,37,102,27,13,31,309,21,19,25,044,29,17,25,203,27*73
$GPGSV,3,3,10,04,22,090,,09,11,174,*7E
$GPRMC,224123.800,A,3927.2668,N,10711.1483,W,0.09,122.75,240415,,,A*71
$GPVTG,122.75,T,,M,0.09,N,0.16,K,A*30
$GPGGA,224124.000,3927.2668,N,10711.1483,W,1,7,1.07,2089.3,M,-18.0,M,,*55
$GPGLL,3927.2668,N,10711.1483,W,224124.000,A,A*45
$GPGSA,A,3,30,17,28,13,11,19,07,,,,,,1.38,1.07,0.87*03
$GPGSV,3,1,10,30,81,019,19,28,59,290,28,07,57,111,29,51,44,180,28*7F
$GPGSV,3,2,10,11,37,102,27,13,31,309,21,19,25,044,29,17,25,203,27*73
$GPGSV,3,3,10,04,22,090,,09,11,174,*7E
$GPRMC,224124.000,A,3927.2668,N,10711.1483,W,0.10,122.75,240415,,,A*76
$GPVTG,122.75,T,,M,0.10,N,0.18,K,A*36
$GPGGA,224124.200,3927.2669,N,10711.1483,W,1,7,1.07,2089.3,M,-18.0,M,,*56
$GPGLL,3927.2669,N,10711.1483,W,224124.200,A,A*46
$GPGSA,A,3,30,17,28,13,11,19,07,,,,,,1.38,1.07,0.87*03
$GPGSV,3,1,10,30,81,019,19,28,59,290,28,07,57,111,29,51,44,180,28*7F
$GPGSV,3,2,10,11,37,102,27,13,31,309,21,19,25,044,29,17,25,203,27*73
$GPGSV,3,3,10,04,22,090,,09,11,174,*7E
$GPRMC,224124.200,A,3927.2669,N,10711.1483,W,0.11,122.75,240415,,,A*74
$GPVTG,122.75,T,,M,0.11,N,0.21,K,A*3D
$GPGGA,224124.400,3927.2669,N,10711.1483,W,1,7,1.07,2089.4,M,-18.0,M,,*57
$GPGLL,3927.2669,N,10711.1483,W,224124.400,A,A*40
$GPGSA,A,3,30,17,28,13,11,19,07,,,,,,1.38,1.07,0.87*03
$GPGSV,3,1,10,30,81,019,19,28,59,290,28,07,57,111,29,51,44,180,28*7F
$GPGSV,3,2,10,11,37,102,27,13,31,309,21,19,25,044,29,17,25,203,27*73
$GPGSV,3,3,10,04,22,090,,09,11,174,*7E
$GPRMC,224124.400,A,3927.2669,N,10711.1483,W,0.12,122.75,240415,,,A*71
$GPVTG,122.75,T,,M,0.12,N,0.21,K,A*3E
$GPGGA,224124.600,3927.2669,N,10711.1483,W,1,7,1.07,2089.4,M,-18.0,M,,*55
$GPGLL,3927.2669,N,10711.1483,W,224124.600,A,A*42
$GPGSA,A,3,30,17,28,13,11,19,07,,,,,,1.38,1.07,0.87*03
$GPGSV,3,1,10,30,81,019,19,28,59,290,28,07,57,111,29,51,44,180,28*7F
$GPGSV,3,2,10,11,37,102,27,13,31,309,21,19,25,044,29,17,25,203,27*73
$GPGSV,3,3,10,04,22,090,,09,11,174,*7E
$GPRMC,224124.600,A,3927.2669,N,10711.1483,W,0.10,122.75,240415,,,A*71
$GPVTG,122.75,T,,M,0.10,N,0.19,K,A*37
$GPGGA,224124.800,3927.2669,N,10711.1483,W,1,7,1.07,2089.4,M,-18.0,M,,*5B
$GPGLL,3927.2669,N,10711.1483,W,224124.800,A,A*4C
$GPGSA,A,3,30,17,28,13,11,19,07,,,,,,1.38,1.07,0.87*03
$GPGSV,3,1,10,30,81,019,19,28,59,290,28,07,57,111,28,51,44,180,28*7E
$GPGSV,3,2,10,11,37,102,27,13,31,309,21,19,25,044,29,17,25,203,27*73
$GPGSV,3,3,10,04,22,090,,09,11,174,*7E
$GPRMC,224124.800,A,3927.2669,N,10711.1483,W,0.09,122.75,240415,,,A*77
$GPVTG,122.75,T,,M,0.09,N,0.17,K,A*31
$GPGGA,224125.000,3927.2670,N,10711.1483,W,1,7,1.07,2089.5,M,-18.0,M,,*5B
$GPGLL,3927.2670,N,10711.1483,W,224125.000,A,A*4D
$GPGSA,A,3,30,17,28,13,11,19,07,,,,,,1.38,1.07,0.87*03
$GPGSV,3,1,10,30,81,019,19,28,59,290,28,07,57,111,28,51,44,180,28*7E
$GPGSV,3,2,10,11,37,102,27,13,31,309,21,19,25,044,29,17,25,203,27*73
$GPGSV,3,3,10,04,22,090,,09,11,174,*7E
$GPRMC,224125.000,A,3927.2670,N,10711.1483,W,0.09,122.75,240415,,,A*76
$GPVTG,122.75,T,,M,0.09,N,0.17,K,A*31
$GPGGA,224125.200,3927.2670,N,10711.1482,W,1,7,1.07,2089.6,M,-18.0,M,,*5B
$GPGLL,3927.2670,N,10711.1482,W,224125.200,A,A*4E
$GPGSA,A,3,30,17,28,13,11,19,07,,,,,,1.38,1.07,0.87*03
$GPGSV,3,1,10,30,81,019,19,28,59,290,28,07,57,111,28,51,44,180,28*7E
$GPGSV,3,2,10,11,37,102,27,13,31,309,21,19,25,044,29,17,25,203,27*73
$GPGSV,3,3,10,04,22,090,,09,11,174,*7E
$GPRMC,224125.200,A,3927.2670,N,10711.1482,W,0.08,122.75,240415,,,A*74
$GPVTG,122.75,T,,M,0.08,N,0.15,K,A*32